<?xml version="1.0" encoding="ISO-8859-1"?>
<kml xmlns="http://earth.google.com/kml/2.0"><Folder><Placemark><name>DECATHLON</name><Point><coordinates>4.37309,51.11862,0</coordinates></Point></Placemark><Placemark><name>DECATHLON CORSICO</name><Point><coordinates>9.07853,45.42881,0</coordinates></Point></Placemark><Placemark><name>DECATHLON GENOVA MARASSI</name><Point><coordinates>8.9488,44.41893,0</coordinates></Point></Placemark><Placemark><name>DECATHLON PADOVA</name><Point><coordinates>11.91037,45.41169,0</coordinates></Point></Placemark><Placemark><name>DECATHLON GENOVA CAMPI</name><Point><coordinates>8.88432,44.42216,0</coordinates></Point></Placemark><Placemark><name>DECATHLON ROMA PRENESTINA</name><Point><coordinates>12.59567,41.89362,0</coordinates></Point></Placemark><Placemark><name>DECATHLON ROMA TORVERGATA</name><Point><coordinates>12.62085,41.84358,0</coordinates></Point></Placemark><Placemark><name>DECATHLON BELLE êPINE</name><Point><coordinates>2.37011,48.74894,0</coordinates></Point></Placemark><Placemark><name>DECATHLON PORTE DE MONTREUIL</name><Point><coordinates>2.41744,48.8525,0</coordinates></Point></Placemark><Placemark><name>DECATHLON PARIS WAGRAM</name><Point><coordinates>2.29703,48.87647,0</coordinates></Point></Placemark><Placemark><name>DECATHLON PARIS MADELEINE</name><Point><coordinates>2.32539,48.86943,0</coordinates></Point></Placemark><Placemark><name>DECATHLON MARATHON LE DêFENSE</name><Point><coordinates>2.23207,48.89114,0</coordinates></Point></Placemark><Placemark><name>DECATHLON PONTAULT-COMBAULT</name><Point><coordinates>2.60111,48.77571,0</coordinates></Point></Placemark><Placemark><name>DECATHLON CHAMBOURCY</name><Point><coordinates>2.03078,48.91174,0</coordinates></Point></Placemark><Placemark><name>DECATHLON PARLY 2</name><Point><coordinates>2.11734,48.82707,0</coordinates></Point></Placemark><Placemark><name>DECATHLON MANTES BUCHELAY</name><Point><coordinates>1.67615,48.98898,0</coordinates></Point></Placemark><Placemark><name>DECATHLON SAINTE-GENEVI‘VE-DES-BOIS</name><Point><coordinates>2.34419,48.62478,0</coordinates></Point></Placemark><Placemark><name>DECATHLON VILLABê</name><Point><coordinates>2.45038,48.58605,0</coordinates></Point></Placemark><Placemark><name>DECATHLON TOURS NORD</name><Point><coordinates>0.70943,47.42544,0</coordinates></Point></Placemark><Placemark><name>DECATHLON CHANTEPIE</name><Point><coordinates>-1.62592,48.0897,0</coordinates></Point></Placemark><Placemark><name>DECATHLON LIMOGES-LE VIGEN</name><Point><coordinates>1.30989,45.77919,0</coordinates></Point></Placemark><Placemark><name>DECATHLON TCV TOULOUSE</name><Point><coordinates>1.44348,43.6106,0</coordinates></Point></Placemark><Placemark><name>DECATHLON BLAGNAC</name><Point><coordinates>1.36939,43.64423,0</coordinates></Point></Placemark><Placemark><name>DECATHLON ONTARIO PORTET</name><Point><coordinates>1.40167,43.53134,0</coordinates></Point></Placemark><Placemark><name>DECATHLON N◊MES</name><Point><coordinates>4.34735,43.8186,0</coordinates></Point></Placemark><Placemark><name>DECATHLON LESCAR</name><Point><coordinates>-0.43544,43.32028,0</coordinates></Point></Placemark><Placemark><name>DECATHLON AIX-EN-PROVENCE</name><Point><coordinates>5.44905,43.52946,0</coordinates></Point></Placemark><Placemark><name>DECATHLON AIX LES MILLES</name><Point><coordinates>5.4066,43.50812,0</coordinates></Point></Placemark><Placemark><name>DECATHLON êCULLY BIKE HALL</name><Point><coordinates>4.7786,45.79014,0</coordinates></Point></Placemark><Placemark><name>DECATHLON BRON SAINT-EXUPêRY</name><Point><coordinates>4.92841,45.72534,0</coordinates></Point></Placemark><Placemark><name>DECATHLON êCHIROLLES</name><Point><coordinates>5.69446,45.15068,0</coordinates></Point></Placemark><Placemark><name>DECATHLON OLLIOULES</name><Point><coordinates>5.87961,43.12476,0</coordinates></Point></Placemark><Placemark><name>DECATHLON VITROLLES</name><Point><coordinates>5.25946,43.43558,0</coordinates></Point></Placemark><Placemark><name>DECATHLON PLAN DE CAMPAGNE</name><Point><coordinates>5.3632,43.41922,0</coordinates></Point></Placemark><Placemark><name>DECATHLON VERDUN</name><Point><coordinates>5.41028,49.14115,0</coordinates></Point></Placemark><Placemark><name>DECATHLON CAMPUS</name><Point><coordinates>3.14119,50.64364,0</coordinates></Point></Placemark><Placemark><name>DECATHLON ENGLOS</name><Point><coordinates>2.96938,50.62855,0</coordinates></Point></Placemark><Placemark><name>DECATHLON V2</name><Point><coordinates>3.12764,50.6167,0</coordinates></Point></Placemark><Placemark><name>DECATHLON QUETIGNY</name><Point><coordinates>5.09774,47.31371,0</coordinates></Point></Placemark><Placemark><name>DECATHLON REIMS NEUVILETTE</name><Point><coordinates>4.02534,49.28769,0</coordinates></Point></Placemark><Placemark><name>DECATHLON FOUQUI‘RES-L‘S-BêTHUNE</name><Point><coordinates>2.62199,50.51566,0</coordinates></Point></Placemark><Placemark><name>DECATHLON VENDIN-LE-VIEIL</name><Point><coordinates>2.82757,50.46319,0</coordinates></Point></Placemark><Placemark><name>DECATHLON CROISSY-BEAUBOURG</name><Point><coordinates>2.63789,48.82882,0</coordinates></Point></Placemark><Placemark><name>DECATHLON ST-DENIS STADE DE FRANCE</name><Point><coordinates>2.36276,48.9254,0</coordinates></Point></Placemark><Placemark><name>DECATHLON MONTIVILLIERS-LE HAVRE</name><Point><coordinates>0.18937,49.5283,0</coordinates></Point></Placemark><Placemark><name>DECATHLON TRIGNAC</name><Point><coordinates>-2.20993,47.29879,0</coordinates></Point></Placemark><Placemark><name>DECATHLON MARGHERA</name><Point><coordinates>12.21571,45.46751,0</coordinates></Point></Placemark><Placemark><name>DECATHLON ANGLET</name><Point><coordinates>-1.50716,43.48405,0</coordinates></Point></Placemark><Placemark><name>DECATHLON SAN GIOVANNI TEATINO</name><Point><coordinates>14.17589,42.42043,0</coordinates></Point></Placemark><Placemark><name>DECATHLON LORIENT</name><Point><coordinates>-3.39969,47.76463,0</coordinates></Point></Placemark><Placemark><name>DECATHLON AMIENS</name><Point><coordinates>2.28083,49.8682,0</coordinates></Point></Placemark><Placemark><name>DECATHLON STRASBOURG-HAUTEPIERRE</name><Point><coordinates>7.69039,48.58716,0</coordinates></Point></Placemark><Placemark><name>DECATHLON LYON PART-DIEU</name><Point><coordinates>4.85305,45.76203,0</coordinates></Point></Placemark><Placemark><name>DECATHLON LE PONTET</name><Point><coordinates>4.86296,43.96609,0</coordinates></Point></Placemark><Placemark><name>DECATHLON CINISELLO</name><Point><coordinates>9.23595,45.54899,0</coordinates></Point></Placemark><Placemark><name>DECATHLON MONTBêLIARD</name><Point><coordinates>6.81222,47.50135,0</coordinates></Point></Placemark><Placemark><name>DECATHLON VALENCE</name><Point><coordinates>4.92841,44.94958,0</coordinates></Point></Placemark><Placemark><name>DECATHLON BOUC-BEL-AIR</name><Point><coordinates>5.39711,43.43218,0</coordinates></Point></Placemark><Placemark><name>DECATHLON êCULLY</name><Point><coordinates>4.77801,45.78987,0</coordinates></Point></Placemark><Placemark><name>DECATHLON SAINT-êTIENNE VILLARS</name><Point><coordinates>4.34297,45.46845,0</coordinates></Point></Placemark><Placemark><name>DECATHLON LAMBRES-LEZ-DOUAI</name><Point><coordinates>3.08913,50.34703,0</coordinates></Point></Placemark><Placemark><name>DECATHLON CASORIA</name><Point><coordinates>14.31407,40.89719,0</coordinates></Point></Placemark><Placemark><name>DECATHLON RAMBLAS</name><Point><coordinates>2.17204,41.38469,0</coordinates></Point></Placemark><Placemark><name>DECATHLON NANTERRE</name><Point><coordinates>2.20104,48.88758,0</coordinates></Point></Placemark><Placemark><name>DECATHLON PARIS RIVE GAUCHE</name><Point><coordinates>2.37676,48.83031,0</coordinates></Point></Placemark><Placemark><name>DECATHLON CHAMBêRY-ST-ALBAN-EN-L.</name><Point><coordinates>5.94969,45.57395,0</coordinates></Point></Placemark><Placemark><name>DECATHLON ALBERTVILLE</name><Point><coordinates>6.36879,45.65619,0</coordinates></Point></Placemark><Placemark><name>DECATHLON ROZZANO</name><Point><coordinates>9.17588,45.39026,0</coordinates></Point></Placemark><Placemark><name>DECATHLON BOLL‘NE</name><Point><coordinates>4.74834,44.28939,0</coordinates></Point></Placemark><Placemark><name>DECATHLON VILLIERS</name><Point><coordinates>2.58286,48.50006,0</coordinates></Point></Placemark><Placemark><name>DECATHLON HERBLAY</name><Point><coordinates>2.18694,48.9996,0</coordinates></Point></Placemark><Placemark><name>DECATHLON VêLIZY</name><Point><coordinates>2.21942,48.78256,0</coordinates></Point></Placemark><Placemark><name>DECATHLON NEUILLY-PLAISANCE</name><Point><coordinates>2.51975,48.85362,0</coordinates></Point></Placemark><Placemark><name>DECATHLON NOISY-LE-SEC</name><Point><coordinates>2.46831,48.90381,0</coordinates></Point></Placemark><Placemark><name>DECATHLON MEAUX</name><Point><coordinates>2.91487,48.95684,0</coordinates></Point></Placemark><Placemark><name>DECATHLON CLAYE-SOUILLY</name><Point><coordinates>2.6694,48.94719,0</coordinates></Point></Placemark><Placemark><name>DECATHLON CRêTEIL</name><Point><coordinates>2.43835,48.77473,0</coordinates></Point></Placemark><Placemark><name>DECATHLON NICE</name><Point><coordinates>7.18754,43.72924,0</coordinates></Point></Placemark><Placemark><name>DECATHLON NATURE ACTIVE NICE</name><Point><coordinates>7.18754,43.72924,0</coordinates></Point></Placemark><Placemark><name>DECATHLON TRANS-EN-PROVENCE</name><Point><coordinates>6.48359,43.50425,0</coordinates></Point></Placemark><Placemark><name>DECATHLON AVISUD AVIGNON</name><Point><coordinates>4.86857,43.9212,0</coordinates></Point></Placemark><Placemark><name>DECATHLON LISSONE</name><Point><coordinates>9.2368,45.59908,0</coordinates></Point></Placemark><Placemark><name>DECATHLON TROYES</name><Point><coordinates>4.13599,48.29364,0</coordinates></Point></Placemark><Placemark><name>DECATHLON SêNART CESSON</name><Point><coordinates>2.595,48.593,0</coordinates></Point></Placemark><Placemark><name>DECATHLON ANGOUL“ME LA COURONNE</name><Point><coordinates>0.10894,45.62258,0</coordinates></Point></Placemark><Placemark><name>DECATHLON MATAR‡</name><Point><coordinates>2.43117,41.54941,0</coordinates></Point></Placemark><Placemark><name>DECATHLON RESCALDINA</name><Point><coordinates>8.96488,45.61082,0</coordinates></Point></Placemark><Placemark><name>DECATHLON REUS</name><Point><coordinates>1.13091,41.14707,0</coordinates></Point></Placemark><Placemark><name>DECATHLON TOURVILLE-LA-RIVI‘RE</name><Point><coordinates>1.09602,49.32814,0</coordinates></Point></Placemark><Placemark><name>DECATHLON CARHAIX</name><Point><coordinates>-3.54595,48.27695,0</coordinates></Point></Placemark><Placemark><name>DECATHLON ALCOBENDAS</name><Point><coordinates>-3.64635,40.53111,0</coordinates></Point></Placemark><Placemark><name>DECATHLON PAMPLONA</name><Point><coordinates>-1.66812,42.83282,0</coordinates></Point></Placemark><Placemark><name>DECATHLON BURGOS</name><Point><coordinates>-3.70425,42.31967,0</coordinates></Point></Placemark><Placemark><name>DECATHLON VITORIA</name><Point><coordinates>-2.71234,42.91085,0</coordinates></Point></Placemark><Placemark><name>DECATHLON BILBAO</name><Point><coordinates>-3.00852,43.28869,0</coordinates></Point></Placemark><Placemark><name>DECATHLON GETAFE</name><Point><coordinates>-3.70134,40.27601,0</coordinates></Point></Placemark><Placemark><name>DECATHLON ORANGE</name><Point><coordinates>4.84032,44.11977,0</coordinates></Point></Placemark><Placemark><name>DECATHLON JARNY</name><Point><coordinates>5.83947,49.16348,0</coordinates></Point></Placemark><Placemark><name>DECATHLON MARMANDE</name><Point><coordinates>0.18052,44.49081,0</coordinates></Point></Placemark><Placemark><name>DECATHLON FOIX</name><Point><coordinates>1.61618,43.00542,0</coordinates></Point></Placemark><Placemark><name>DECATHLON CHAMPNIERS</name><Point><coordinates>0.18278,45.69219,0</coordinates></Point></Placemark><Placemark><name>DECATHLON QUIMPER</name><Point><coordinates>-4.07811,47.97969,0</coordinates></Point></Placemark><Placemark><name>DECATHLON BAILLEUL</name><Point><coordinates>2.74785,50.72381,0</coordinates></Point></Placemark><Placemark><name>DECATHLON VENDENHEIM</name><Point><coordinates>7.72402,48.65653,0</coordinates></Point></Placemark><Placemark><name>DECATHLON TARBES</name><Point><coordinates>0.04573,43.23655,0</coordinates></Point></Placemark><Placemark><name>DECATHLON SAINT-PAUL-L‘S-DAX</name><Point><coordinates>-1.03926,43.72913,0</coordinates></Point></Placemark><Placemark><name>DECATHLON PERPIGNAN</name><Point><coordinates>2.88952,42.67241,0</coordinates></Point></Placemark><Placemark><name>DECATHLON ARLES</name><Point><coordinates>4.63515,43.66563,0</coordinates></Point></Placemark><Placemark><name>DECATHLON GRASSE</name><Point><coordinates>6.93773,43.65544,0</coordinates></Point></Placemark><Placemark><name>DECATHLON ELCHE</name><Point><coordinates>-0.72757,38.25865,0</coordinates></Point></Placemark><Placemark><name>DECATHLON PLATJA D'ARO</name><Point><coordinates>3.05425,41.80647,0</coordinates></Point></Placemark><Placemark><name>DECATHLON BêZIERS 2</name><Point><coordinates>3.25649,43.34768,0</coordinates></Point></Placemark><Placemark><name>DECATHLON BêZIERS 1</name><Point><coordinates>3.25618,43.34764,0</coordinates></Point></Placemark><Placemark><name>DECATHLON VILLENAVE-D'ORNON</name><Point><coordinates>-0.53489,44.78865,0</coordinates></Point></Placemark><Placemark><name>DECATHLON VICHY-BELLERIVE</name><Point><coordinates>3.40023,46.12797,0</coordinates></Point></Placemark><Placemark><name>DECATHLON MULHOUSE</name><Point><coordinates>7.2899,47.73885,0</coordinates></Point></Placemark><Placemark><name>DECATHLON THIONVILLE</name><Point><coordinates>6.12994,49.35005,0</coordinates></Point></Placemark><Placemark><name>DECATHLON MONTIGALµ</name><Point><coordinates>2.22557,41.45845,0</coordinates></Point></Placemark><Placemark><name>DECATHLON MêRIGNAC</name><Point><coordinates>-0.67945,44.82955,0</coordinates></Point></Placemark><Placemark><name>DECATHLON LE MANS NORD</name><Point><coordinates>0.17274,48.04084,0</coordinates></Point></Placemark><Placemark><name>DECATHLON ANGERS</name><Point><coordinates>-0.61833,47.46718,0</coordinates></Point></Placemark><Placemark><name>DECATHLON LA ROCHE-SUR-YON</name><Point><coordinates>-1.43092,46.69619,0</coordinates></Point></Placemark><Placemark><name>DECATHLON ATLANTIS SAINT-HERBLAIN</name><Point><coordinates>-1.62734,47.22442,0</coordinates></Point></Placemark><Placemark><name>DECATHLON LES HERBIERS</name><Point><coordinates>-1.01583,46.87768,0</coordinates></Point></Placemark><Placemark><name>DECATHLON BARENTIN</name><Point><coordinates>0.96599,49.5327,0</coordinates></Point></Placemark><Placemark><name>DECATHLON PONT-AUDEMER</name><Point><coordinates>0.54242,49.3479,0</coordinates></Point></Placemark><Placemark><name>DECATHLON SAINT-QUAY-PERROS</name><Point><coordinates>-3.45098,48.76401,0</coordinates></Point></Placemark><Placemark><name>DECATHLON êVREUX</name><Point><coordinates>1.15761,49.00322,0</coordinates></Point></Placemark><Placemark><name>DECATHLON ROMORANTIN</name><Point><coordinates>1.73825,47.37122,0</coordinates></Point></Placemark><Placemark><name>DECATHLON MORLAIX</name><Point><coordinates>-3.85552,48.57653,0</coordinates></Point></Placemark><Placemark><name>DECATHLON SAN SEBASTIµN</name><Point><coordinates>-2.01431,43.28101,0</coordinates></Point></Placemark><Placemark><name>DECATHLON LOS BARRIOS</name><Point><coordinates>-5.43446,36.18932,0</coordinates></Point></Placemark><Placemark><name>DECATHLON BEYNOST</name><Point><coordinates>4.99872,45.82379,0</coordinates></Point></Placemark><Placemark><name>DECATHLON LA TRINITê</name><Point><coordinates>7.32026,43.74396,0</coordinates></Point></Placemark><Placemark><name>DECATHLON MARTIGUES</name><Point><coordinates>5.04803,43.4303,0</coordinates></Point></Placemark><Placemark><name>DECATHLON AUBAGNE</name><Point><coordinates>5.59347,43.29638,0</coordinates></Point></Placemark><Placemark><name>DECATHLON LA TRONCHE</name><Point><coordinates>5.74792,45.19605,0</coordinates></Point></Placemark><Placemark><name>DECATHLON LIMONEST</name><Point><coordinates>4.76714,45.822,0</coordinates></Point></Placemark><Placemark><name>DECATHLON LA GARDE</name><Point><coordinates>6.01973,43.14072,0</coordinates></Point></Placemark><Placemark><name>DECATHLON FLERS</name><Point><coordinates>-0.58473,48.72541,0</coordinates></Point></Placemark><Placemark><name>DECATHLON AVRANCHES</name><Point><coordinates>-1.35447,48.65683,0</coordinates></Point></Placemark><Placemark><name>DECATHLON COLMAR</name><Point><coordinates>7.36396,48.10183,0</coordinates></Point></Placemark><Placemark><name>DECATHLON CHOLET</name><Point><coordinates>-0.86003,47.05568,0</coordinates></Point></Placemark><Placemark><name>DECATHLON MONTAUBAN</name><Point><coordinates>1.33355,43.98526,0</coordinates></Point></Placemark><Placemark><name>DECATHLON VANNES</name><Point><coordinates>-2.78199,47.66352,0</coordinates></Point></Placemark><Placemark><name>DECATHLON PRATO</name><Point><coordinates>11.10639,43.85936,0</coordinates></Point></Placemark><Placemark><name>DECATHLON AL‘S</name><Point><coordinates>4.10247,44.11445,0</coordinates></Point></Placemark><Placemark><name>DECATHLON M∂CON</name><Point><coordinates>4.80246,46.27852,0</coordinates></Point></Placemark><Placemark><name>DECATHLON NIORT</name><Point><coordinates>-0.40545,46.33732,0</coordinates></Point></Placemark><Placemark><name>DECATHLON MONTLU